{
  "countries": [
    {
      "id": "cayman-islands",
      "index": {
        "cost-of-living-index": 141.64,
        "restaurant-price-index": 105.03,
        "groceries-index": 157.93,
        "rent-index": 74.4
      },
      "type": "country",
      "country": "Cayman Islands",
      "location": {
        "latitude": 19.513469,
        "longitude": -80.566956
      },
      "code": "KY",
      "name": "Cayman Islands"
    },
    {
      "id": "bermuda",
      "index": {
        "cost-of-living-index": 138.22,
        "restaurant-price-index": 150.4,
        "groceries-index": 124.87,
        "rent-index": 87.62
      },
      "type": "country",
      "country": "Bermuda",
      "location": {
        "latitude": 32.321384,
        "longitude": -64.75737
      },
      "code": "BM",
      "name": "Bermuda"
    },
    {
      "id": "switzerland",
      "index": {
        "cost-of-living-index": 122.67,
        "restaurant-price-index": 124.04,
        "groceries-index": 121.29,
        "rent-index": 50.22
      },
      "type": "country",
      "country": "Switzerland",
      "location": {
        "latitude": 46.818188,
        "longitude": 8.227512
      },
      "code": "CH",
      "name": "Switzerland"
    },
    {
      "id": "norway",
      "index": {
        "cost-of-living-index": 104.49,
        "restaurant-price-index": 115.59,
        "groceries-index": 93.94,
        "rent-index": 37.26
      },
      "type": "country",
      "country": "Norway",
      "location": {
        "latitude": 60.472024,
        "longitude": 8.468946
      },
      "code": "NO",
      "name": "Norway"
    },
    {
      "id": "us-virgin-islands",
      "index": {
        "cost-of-living-index": 97.23,
        "restaurant-price-index": 90.74,
        "groceries-index": 87.42,
        "rent-index": 48.24
      },
      "type": "country",
      "country": "Us Virgin Islands",
      "name": "Us Virgin Islands"
    },
    {
      "id": "iceland",
      "index": {
        "cost-of-living-index": 97.22,
        "restaurant-price-index": 111.46,
        "groceries-index": 84.63,
        "rent-index": 45.08
      },
      "type": "country",
      "country": "Iceland",
      "location": {
        "latitude": 64.963051,
        "longitude": -19.020835
      },
      "code": "IS",
      "name": "Iceland"
    },
    {
      "id": "bahamas",
      "index": {
        "cost-of-living-index": 85.96,
        "restaurant-price-index": 87.2,
        "groceries-index": 68.84,
        "rent-index": 35.4
      },
      "type": "country",
      "country": "Bahamas",
      "location": {
        "latitude": 25.03428,
        "longitude": -77.39628
      },
      "code": "BS",
      "name": "Bahamas"
    },
    {
      "id": "japan",
      "index": {
        "cost-of-living-index": 85.52,
        "restaurant-price-index": 50.05,
        "groceries-index": 84.69,
        "rent-index": 28.08
      },
      "type": "country",
      "country": "Japan",
      "location": {
        "latitude": 36.204824,
        "longitude": 138.252924
      },
      "code": "JP",
      "name": "Japan"
    },
    {
      "id": "luxembourg",
      "index": {
        "cost-of-living-index": 84.68,
        "restaurant-price-index": 92.91,
        "groceries-index": 71.6,
        "rent-index": 55.44
      },
      "type": "country",
      "country": "Luxembourg",
      "location": {
        "latitude": 49.815273,
        "longitude": 6.129583
      },
      "code": "LU",
      "name": "Luxembourg"
    },
    {
      "id": "denmark",
      "index": {
        "cost-of-living-index": 83.88,
        "restaurant-price-index": 100.63,
        "groceries-index": 64.02,
        "rent-index": 33.73
      },
      "type": "country",
      "country": "Denmark",
      "location": {
        "latitude": 56.26392,
        "longitude": 9.501785
      },
      "code": "DK",
      "name": "Denmark"
    },
    {
      "id": "barbados",
      "index": {
        "cost-of-living-index": 80.32,
        "restaurant-price-index": 72.61,
        "groceries-index": 72.75,
        "rent-index": 20
      },
      "type": "country",
      "country": "Barbados",
      "location": {
        "latitude": 13.193887,
        "longitude": -59.543198
      },
      "code": "BB",
      "name": "Barbados"
    },
    {
      "id": "singapore",
      "index": {
        "cost-of-living-index": 80.23,
        "restaurant-price-index": 55.41,
        "groceries-index": 68.28,
        "rent-index": 61.99
      },
      "type": "country",
      "country": "Singapore",
      "location": {
        "latitude": 1.352083,
        "longitude": 103.819836
      },
      "code": "SG",
      "name": "Singapore"
    },
    {
      "id": "israel",
      "index": {
        "cost-of-living-index": 79.54,
        "restaurant-price-index": 88.75,
        "groceries-index": 64.86,
        "rent-index": 31.49
      },
      "type": "country",
      "country": "Israel",
      "location": {
        "latitude": 31.046051,
        "longitude": 34.851612
      },
      "code": "IL",
      "name": "Israel"
    },
    {
      "id": "hong-kong",
      "index": {
        "cost-of-living-index": 79.21,
        "restaurant-price-index": 55.62,
        "groceries-index": 79.4,
        "rent-index": 79.72
      },
      "type": "country",
      "country": "Hong Kong",
      "location": {
        "latitude": 22.396428,
        "longitude": 114.109497
      },
      "code": "HK",
      "name": "Hong Kong"
    },
    {
      "id": "ireland",
      "index": {
        "cost-of-living-index": 76.33,
        "restaurant-price-index": 84.08,
        "groceries-index": 58.83,
        "rent-index": 43.94
      },
      "type": "country",
      "country": "Ireland",
      "location": {
        "latitude": 53.41291,
        "longitude": -8.24389
      },
      "code": "IE",
      "name": "Ireland"
    },
    {
      "id": "netherlands",
      "index": {
        "cost-of-living-index": 75.22,
        "restaurant-price-index": 82.9,
        "groceries-index": 58.1,
        "rent-index": 35.29
      },
      "type": "country",
      "country": "Netherlands",
      "location": {
        "latitude": 52.132633,
        "longitude": 5.291266
      },
      "code": "NL",
      "name": "Netherlands"
    },
    {
      "id": "south-korea",
      "index": {
        "cost-of-living-index": 75.16,
        "restaurant-price-index": 43.27,
        "groceries-index": 87.23,
        "rent-index": 20.87
      },
      "type": "country",
      "country": "South Korea",
      "location": {
        "latitude": 35.907757,
        "longitude": 127.766922
      },
      "code": "KR",
      "name": "South Korea"
    },
    {
      "id": "france",
      "index": {
        "cost-of-living-index": 74.62,
        "restaurant-price-index": 75.09,
        "groceries-index": 67.42,
        "rent-index": 26.1
      },
      "type": "country",
      "country": "France",
      "location": {
        "latitude": 46.227638,
        "longitude": 2.213749
      },
      "code": "FR",
      "name": "France"
    },
    {
      "id": "australia",
      "index": {
        "cost-of-living-index": 73.39,
        "restaurant-price-index": 72.23,
        "groceries-index": 67.38,
        "rent-index": 35.35
      },
      "type": "country",
      "country": "Australia",
      "location": {
        "latitude": -25.274398,
        "longitude": 133.775136
      },
      "code": "AU",
      "name": "Australia"
    },
    {
      "id": "belgium",
      "index": {
        "cost-of-living-index": 73.13,
        "restaurant-price-index": 82.53,
        "groceries-index": 60.46,
        "rent-index": 26.05
      },
      "type": "country",
      "country": "Belgium",
      "location": {
        "latitude": 50.503887,
        "longitude": 4.469936
      },
      "code": "BE",
      "name": "Belgium"
    },
    {
      "id": "new-zealand",
      "index": {
        "cost-of-living-index": 73.01,
        "restaurant-price-index": 69.93,
        "groceries-index": 65.05,
        "rent-index": 31.44
      },
      "type": "country",
      "country": "New Zealand",
      "location": {
        "latitude": -40.900557,
        "longitude": 174.885971
      },
      "code": "NZ",
      "name": "New Zealand"
    },
    {
      "id": "seychelles",
      "index": {
        "cost-of-living-index": 72.75,
        "restaurant-price-index": 87.37,
        "groceries-index": 65.46,
        "rent-index": 32.79
      },
      "type": "country",
      "country": "Seychelles",
      "location": {
        "latitude": -4.679574,
        "longitude": 55.491977
      },
      "code": "SC",
      "name": "Seychelles"
    },
    {
      "id": "finland",
      "index": {
        "cost-of-living-index": 72.18,
        "restaurant-price-index": 79.39,
        "groceries-index": 58.18,
        "rent-index": 26.31
      },
      "type": "country",
      "country": "Finland",
      "location": {
        "latitude": 61.92411,
        "longitude": 25.748151
      },
      "code": "FI",
      "name": "Finland"
    },
    {
      "id": "austria",
      "index": {
        "cost-of-living-index": 72.15,
        "restaurant-price-index": 71.81,
        "groceries-index": 64.81,
        "rent-index": 27.84
      },
      "type": "country",
      "country": "Austria",
      "location": {
        "latitude": 47.516231,
        "longitude": 14.550072
      },
      "code": "AT",
      "name": "Austria"
    },
    {
      "id": "united-states",
      "index": {
        "cost-of-living-index": 70.95,
        "restaurant-price-index": 70.76,
        "groceries-index": 67.1,
        "rent-index": 40.5
      },
      "type": "country",
      "country": "United States",
      "location": {
        "latitude": 37.09024,
        "longitude": -95.712891
      },
      "code": "US",
      "name": "United States"
    },
    {
      "id": "sweden",
      "index": {
        "cost-of-living-index": 70.11,
        "restaurant-price-index": 72.14,
        "groceries-index": 61.18,
        "rent-index": 25.65
      },
      "type": "country",
      "country": "Sweden",
      "location": {
        "latitude": 60.128161,
        "longitude": 18.643501
      },
      "code": "SE",
      "name": "Sweden"
    },
    {
      "id": "italy",
      "index": {
        "cost-of-living-index": 69.02,
        "restaurant-price-index": 74.72,
        "groceries-index": 57.45,
        "rent-index": 21.6
      },
      "type": "country",
      "country": "Italy",
      "location": {
        "latitude": 41.87194,
        "longitude": 12.56738
      },
      "code": "IT",
      "name": "Italy"
    },
    {
      "id": "canada",
      "index": {
        "cost-of-living-index": 68.16,
        "restaurant-price-index": 63.25,
        "groceries-index": 64.99,
        "rent-index": 30.28
      },
      "type": "country",
      "country": "Canada",
      "location": {
        "latitude": 56.130366,
        "longitude": -106.346771
      },
      "code": "CA",
      "name": "Canada"
    },
    {
      "id": "puerto-rico",
      "index": {
        "cost-of-living-index": 66.81,
        "restaurant-price-index": 54.64,
        "groceries-index": 65.8,
        "rent-index": 18.46
      },
      "type": "country",
      "country": "Puerto Rico",
      "location": {
        "latitude": 18.220833,
        "longitude": -66.590149
      },
      "code": "PR",
      "name": "Puerto Rico"
    },
    {
      "id": "germany",
      "index": {
        "cost-of-living-index": 66.57,
        "restaurant-price-index": 63.38,
        "groceries-index": 51.21,
        "rent-index": 27.02
      },
      "type": "country",
      "country": "Germany",
      "location": {
        "latitude": 51.165691,
        "longitude": 10.451526
      },
      "code": "DE",
      "name": "Germany"
    },
    {
      "id": "malta",
      "index": {
        "cost-of-living-index": 65.43,
        "restaurant-price-index": 73.53,
        "groceries-index": 51.11,
        "rent-index": 30.14
      },
      "type": "country",
      "country": "Malta",
      "location": {
        "latitude": 35.937496,
        "longitude": 14.375416
      },
      "code": "MT",
      "name": "Malta"
    },
    {
      "id": "united-kingdom",
      "index": {
        "cost-of-living-index": 65.33,
        "restaurant-price-index": 72.54,
        "groceries-index": 50.44,
        "rent-index": 28.69
      },
      "type": "country",
      "country": "United Kingdom",
      "location": {
        "latitude": 55.378051,
        "longitude": -3.435973
      },
      "code": "GB",
      "name": "United Kingdom"
    },
    {
      "id": "united-arab-emirates",
      "index": {
        "cost-of-living-index": 63.58,
        "restaurant-price-index": 62.17,
        "groceries-index": 50.68,
        "rent-index": 45.04
      },
      "type": "country",
      "country": "United Arab Emirates",
      "location": {
        "latitude": 23.424076,
        "longitude": 53.847818
      },
      "code": "AE",
      "name": "United Arab Emirates"
    },
    {
      "id": "qatar",
      "index": {
        "cost-of-living-index": 62.22,
        "restaurant-price-index": 63.93,
        "groceries-index": 52.6,
        "rent-index": 51.18
      },
      "type": "country",
      "country": "Qatar",
      "location": {
        "latitude": 25.354826,
        "longitude": 51.183884
      },
      "code": "QA",
      "name": "Qatar"
    },
    {
      "id": "libya",
      "index": {
        "cost-of-living-index": 61.25,
        "restaurant-price-index": 38.11,
        "groceries-index": 72.77,
        "rent-index": 15.15
      },
      "type": "country",
      "country": "Libya",
      "location": {
        "latitude": 26.3351,
        "longitude": 17.228331
      },
      "code": "LY",
      "name": "Libya"
    },
    {
      "id": "lebanon",
      "index": {
        "cost-of-living-index": 59.74,
        "restaurant-price-index": 58.13,
        "groceries-index": 44.09,
        "rent-index": 26.2
      },
      "type": "country",
      "country": "Lebanon",
      "location": {
        "latitude": 33.854721,
        "longitude": 35.862285
      },
      "code": "LB",
      "name": "Lebanon"
    },
    {
      "id": "taiwan",
      "index": {
        "cost-of-living-index": 58.77,
        "restaurant-price-index": 26.95,
        "groceries-index": 67.88,
        "rent-index": 15.45
      },
      "type": "country",
      "country": "Taiwan",
      "location": {
        "latitude": 23.69781,
        "longitude": 120.960515
      },
      "code": "TW",
      "name": "Taiwan"
    },
    {
      "id": "cyprus",
      "index": {
        "cost-of-living-index": 58.39,
        "restaurant-price-index": 63.14,
        "groceries-index": 45.01,
        "rent-index": 20.72
      },
      "type": "country",
      "country": "Cyprus",
      "location": {
        "latitude": 35.126413,
        "longitude": 33.429859
      },
      "code": "CY",
      "name": "Cyprus"
    },
    {
      "id": "bahrain",
      "index": {
        "cost-of-living-index": 58.36,
        "restaurant-price-index": 52.53,
        "groceries-index": 49.52,
        "rent-index": 31.22
      },
      "type": "country",
      "country": "Bahrain",
      "location": {
        "latitude": 25.930414,
        "longitude": 50.637772
      },
      "code": "BH",
      "name": "Bahrain"
    },
    {
      "id": "greece",
      "index": {
        "cost-of-living-index": 56.72,
        "restaurant-price-index": 55.42,
        "groceries-index": 42.78,
        "rent-index": 11.47
      },
      "type": "country",
      "country": "Greece",
      "location": {
        "latitude": 39.074208,
        "longitude": 21.824312
      },
      "code": "GR",
      "name": "Greece"
    },
    {
      "id": "jamaica",
      "index": {
        "cost-of-living-index": 56.44,
        "restaurant-price-index": 39.88,
        "groceries-index": 55.76,
        "rent-index": 14.76
      },
      "type": "country",
      "country": "Jamaica",
      "location": {
        "latitude": 18.109581,
        "longitude": -77.297508
      },
      "code": "JM",
      "name": "Jamaica"
    },
    {
      "id": "ethiopia",
      "index": {
        "cost-of-living-index": 55.52,
        "restaurant-price-index": 20.28,
        "groceries-index": 35.81,
        "rent-index": 26.31
      },
      "type": "country",
      "country": "Ethiopia",
      "location": {
        "latitude": 9.145,
        "longitude": 40.489673
      },
      "code": "ET",
      "name": "Ethiopia"
    },
    {
      "id": "jordan",
      "index": {
        "cost-of-living-index": 55.36,
        "restaurant-price-index": 49.7,
        "groceries-index": 43.45,
        "rent-index": 11.88
      },
      "type": "country",
      "country": "Jordan",
      "location": {
        "latitude": 30.585164,
        "longitude": 36.238414
      },
      "code": "JO",
      "name": "Jordan"
    },
    {
      "id": "costa-rica",
      "index": {
        "cost-of-living-index": 55.09,
        "restaurant-price-index": 45.7,
        "groceries-index": 49.74,
        "rent-index": 16.23
      },
      "type": "country",
      "country": "Costa Rica",
      "location": {
        "latitude": 9.748917,
        "longitude": -83.753428
      },
      "code": "CR",
      "name": "Costa Rica"
    },
    {
      "id": "uruguay",
      "index": {
        "cost-of-living-index": 54.91,
        "restaurant-price-index": 53.64,
        "groceries-index": 43.15,
        "rent-index": 15.46
      },
      "type": "country",
      "country": "Uruguay",
      "location": {
        "latitude": -32.522779,
        "longitude": -55.765835
      },
      "code": "UY",
      "name": "Uruguay"
    },
    {
      "id": "spain",
      "index": {
        "cost-of-living-index": 54.74,
        "restaurant-price-index": 53.74,
        "groceries-index": 43.25,
        "rent-index": 21.53
      },
      "type": "country",
      "country": "Spain",
      "location": {
        "latitude": 40.463667,
        "longitude": -3.74922
      },
      "code": "ES",
      "name": "Spain"
    },
    {
      "id": "zimbabwe",
      "index": {
        "cost-of-living-index": 54.72,
        "restaurant-price-index": 39.57,
        "groceries-index": 49.94,
        "rent-index": 11.51
      },
      "type": "country",
      "country": "Zimbabwe",
      "location": {
        "latitude": -19.015438,
        "longitude": 29.154857
      },
      "code": "ZW",
      "name": "Zimbabwe"
    },
    {
      "id": "trinidad-and-tobago",
      "index": {
        "cost-of-living-index": 54.17,
        "restaurant-price-index": 48.9,
        "groceries-index": 49.87,
        "rent-index": 16.5
      },
      "type": "country",
      "country": "Trinidad and Tobago",
      "location": {
        "latitude": 10.691803,
        "longitude": -61.222503
      },
      "code": "TT",
      "name": "Trinidad and Tobago"
    },
    {
      "id": "slovenia",
      "index": {
        "cost-of-living-index": 54.17,
        "restaurant-price-index": 45.59,
        "groceries-index": 44.5,
        "rent-index": 15.81
      },
      "type": "country",
      "country": "Slovenia",
      "location": {
        "latitude": 46.151241,
        "longitude": 14.995463
      },
      "code": "SI",
      "name": "Slovenia"
    },
    {
      "id": "palestinian-territory",
      "index": {
        "cost-of-living-index": 52.99,
        "restaurant-price-index": 38.44,
        "groceries-index": 46.05,
        "rent-index": 9.25
      },
      "type": "country",
      "country": "Palestinian Territory",
      "name": "Palestinian Territory"
    },
    {
      "id": "panama",
      "index": {
        "cost-of-living-index": 52.98,
        "restaurant-price-index": 47.41,
        "groceries-index": 50.27,
        "rent-index": 24.42
      },
      "type": "country",
      "country": "Panama",
      "location": {
        "latitude": 8.537981,
        "longitude": -80.782127
      },
      "code": "PA",
      "name": "Panama"
    },
    {
      "id": "mauritius",
      "index": {
        "cost-of-living-index": 51.6,
        "restaurant-price-index": 40.27,
        "groceries-index": 46.06,
        "rent-index": 11.3
      },
      "type": "country",
      "country": "Mauritius",
      "location": {
        "latitude": -20.348404,
        "longitude": 57.552152
      },
      "code": "MU",
      "name": "Mauritius"
    },
    {
      "id": "estonia",
      "index": {
        "cost-of-living-index": 50.99,
        "restaurant-price-index": 53.06,
        "groceries-index": 36.22,
        "rent-index": 15.63
      },
      "type": "country",
      "country": "Estonia",
      "location": {
        "latitude": 58.595272,
        "longitude": 25.013607
      },
      "code": "EE",
      "name": "Estonia"
    },
    {
      "id": "portugal",
      "index": {
        "cost-of-living-index": 50.77,
        "restaurant-price-index": 43.85,
        "groceries-index": 39.9,
        "rent-index": 21.76
      },
      "type": "country",
      "country": "Portugal",
      "location": {
        "latitude": 39.399872,
        "longitude": -8.224454
      },
      "code": "PT",
      "name": "Portugal"
    },
    {
      "id": "kuwait",
      "index": {
        "cost-of-living-index": 50.33,
        "restaurant-price-index": 48.05,
        "groceries-index": 36.73,
        "rent-index": 32.98
      },
      "type": "country",
      "country": "Kuwait",
      "location": {
        "latitude": 29.31166,
        "longitude": 47.481766
      },
      "code": "KW",
      "name": "Kuwait"
    },
    {
      "id": "croatia",
      "index": {
        "cost-of-living-index": 50.05,
        "restaurant-price-index": 42.07,
        "groceries-index": 40.52,
        "rent-index": 12.71
      },
      "type": "country",
      "country": "Croatia",
      "location": {
        "latitude": 45.1,
        "longitude": 15.2
      },
      "code": "HR",
      "name": "Croatia"
    },
    {
      "id": "thailand",
      "index": {
        "cost-of-living-index": 49.86,
        "restaurant-price-index": 24.83,
        "groceries-index": 50.08,
        "rent-index": 17.13
      },
      "type": "country",
      "country": "Thailand",
      "location": {
        "latitude": 15.870032,
        "longitude": 100.992541
      },
      "code": "TH",
      "name": "Thailand"
    },
    {
      "id": "fiji",
      "index": {
        "cost-of-living-index": 49.67,
        "restaurant-price-index": 36.71,
        "groceries-index": 54.9,
        "rent-index": 19.79
      },
      "type": "country",
      "country": "Fiji",
      "location": {
        "latitude": -16.578193,
        "longitude": 179.414413
      },
      "code": "FJ",
      "name": "Fiji"
    },
    {
      "id": "latvia",
      "index": {
        "cost-of-living-index": 49.55,
        "restaurant-price-index": 47.73,
        "groceries-index": 35.72,
        "rent-index": 12.04
      },
      "type": "country",
      "country": "Latvia",
      "location": {
        "latitude": 56.879635,
        "longitude": 24.603189
      },
      "code": "LV",
      "name": "Latvia"
    },
    {
      "id": "chile",
      "index": {
        "cost-of-living-index": 49.15,
        "restaurant-price-index": 46.84,
        "groceries-index": 41.26,
        "rent-index": 15.54
      },
      "type": "country",
      "country": "Chile",
      "location": {
        "latitude": -35.675147,
        "longitude": -71.542969
      },
      "code": "CL",
      "name": "Chile"
    },
    {
      "id": "belize",
      "index": {
        "cost-of-living-index": 49.06,
        "restaurant-price-index": 39.47,
        "groceries-index": 40.63,
        "rent-index": 10.62
      },
      "type": "country",
      "country": "Belize",
      "location": {
        "latitude": 17.189877,
        "longitude": -88.49765
      },
      "code": "BZ",
      "name": "Belize"
    },
    {
      "id": "saudi-arabia",
      "index": {
        "cost-of-living-index": 48.71,
        "restaurant-price-index": 34.17,
        "groceries-index": 37.98,
        "rent-index": 11.55
      },
      "type": "country",
      "country": "Saudi Arabia",
      "location": {
        "latitude": 23.885942,
        "longitude": 45.079162
      },
      "code": "SA",
      "name": "Saudi Arabia"
    },
    {
      "id": "oman",
      "index": {
        "cost-of-living-index": 48.55,
        "restaurant-price-index": 47.06,
        "groceries-index": 40.85,
        "rent-index": 19.4
      },
      "type": "country",
      "country": "Oman",
      "location": {
        "latitude": 21.512583,
        "longitude": 55.923255
      },
      "code": "OM",
      "name": "Oman"
    },
    {
      "id": "myanmar",
      "index": {
        "cost-of-living-index": 48.06,
        "restaurant-price-index": 22.19,
        "groceries-index": 52.6,
        "rent-index": 22.96
      },
      "type": "country",
      "country": "Myanmar",
      "name": "Myanmar"
    },
    {
      "id": "cambodia",
      "index": {
        "cost-of-living-index": 47.82,
        "restaurant-price-index": 25.43,
        "groceries-index": 43.9,
        "rent-index": 15.13
      },
      "type": "country",
      "country": "Cambodia",
      "location": {
        "latitude": 12.565679,
        "longitude": 104.990963
      },
      "code": "KH",
      "name": "Cambodia"
    },
    {
      "id": "el-salvador",
      "index": {
        "cost-of-living-index": 47.69,
        "restaurant-price-index": 36.29,
        "groceries-index": 46.27,
        "rent-index": 15.61
      },
      "type": "country",
      "country": "El Salvador",
      "location": {
        "latitude": 13.794185,
        "longitude": -88.89653
      },
      "code": "SV",
      "name": "El Salvador"
    },
    {
      "id": "dominican-republic",
      "index": {
        "cost-of-living-index": 46.17,
        "restaurant-price-index": 42.21,
        "groceries-index": 36.37,
        "rent-index": 10.59
      },
      "type": "country",
      "country": "Dominican Republic",
      "location": {
        "latitude": 18.735693,
        "longitude": -70.162651
      },
      "code": "DO",
      "name": "Dominican Republic"
    },
    {
      "id": "nicaragua",
      "index": {
        "cost-of-living-index": 45.87,
        "restaurant-price-index": 31.56,
        "groceries-index": 43.69,
        "rent-index": 8.91
      },
      "type": "country",
      "country": "Nicaragua",
      "location": {
        "latitude": 12.865416,
        "longitude": -85.207229
      },
      "code": "NI",
      "name": "Nicaragua"
    },
    {
      "id": "czech-republic",
      "index": {
        "cost-of-living-index": 45.7,
        "restaurant-price-index": 33.78,
        "groceries-index": 37.89,
        "rent-index": 19.37
      },
      "type": "country",
      "country": "Czech Republic",
      "location": {
        "latitude": 49.817492,
        "longitude": 15.472962
      },
      "code": "CZ",
      "name": "Czech Republic"
    },
    {
      "id": "lithuania",
      "index": {
        "cost-of-living-index": 45.41,
        "restaurant-price-index": 43.77,
        "groceries-index": 35.14,
        "rent-index": 12.8
      },
      "type": "country",
      "country": "Lithuania",
      "location": {
        "latitude": 55.169438,
        "longitude": 23.881275
      },
      "code": "LT",
      "name": "Lithuania"
    },
    {
      "id": "mozambique",
      "index": {
        "cost-of-living-index": 44.65,
        "restaurant-price-index": 38.38,
        "groceries-index": 33.48,
        "rent-index": 19.94
      },
      "type": "country",
      "country": "Mozambique",
      "location": {
        "latitude": -18.665695,
        "longitude": 35.529562
      },
      "code": "MZ",
      "name": "Mozambique"
    },
    {
      "id": "slovakia",
      "index": {
        "cost-of-living-index": 44.65,
        "restaurant-price-index": 33.94,
        "groceries-index": 37.68,
        "rent-index": 15.86
      },
      "type": "country",
      "country": "Slovakia",
      "location": {
        "latitude": 48.669026,
        "longitude": 19.699024
      },
      "code": "SK",
      "name": "Slovakia"
    },
    {
      "id": "brunei",
      "index": {
        "cost-of-living-index": 44.33,
        "restaurant-price-index": 35.08,
        "groceries-index": 37.7,
        "rent-index": 23.29
      },
      "type": "country",
      "country": "Brunei",
      "location": {
        "latitude": 4.535277,
        "longitude": 114.727669
      },
      "code": "BN",
      "name": "Brunei"
    },
    {
      "id": "namibia",
      "index": {
        "cost-of-living-index": 44.1,
        "restaurant-price-index": 41.18,
        "groceries-index": 38.92,
        "rent-index": 16.87
      },
      "type": "country",
      "country": "Namibia",
      "location": {
        "latitude": -22.95764,
        "longitude": 18.49041
      },
      "code": "NA",
      "name": "Namibia"
    },
    {
      "id": "south-africa",
      "index": {
        "cost-of-living-index": 43.74,
        "restaurant-price-index": 41.75,
        "groceries-index": 34.36,
        "rent-index": 17.24
      },
      "type": "country",
      "country": "South Africa",
      "location": {
        "latitude": -30.559482,
        "longitude": 22.937506
      },
      "code": "ZA",
      "name": "South Africa"
    },
    {
      "id": "ghana",
      "index": {
        "cost-of-living-index": 43.11,
        "restaurant-price-index": 27.8,
        "groceries-index": 38.33,
        "rent-index": 26.61
      },
      "type": "country",
      "country": "Ghana",
      "location": {
        "latitude": 7.946527,
        "longitude": -1.023194
      },
      "code": "GH",
      "name": "Ghana"
    },
    {
      "id": "guatemala",
      "index": {
        "cost-of-living-index": 43.04,
        "restaurant-price-index": 33.7,
        "groceries-index": 37.69,
        "rent-index": 14.77
      },
      "type": "country",
      "country": "Guatemala",
      "location": {
        "latitude": 15.783471,
        "longitude": -90.230759
      },
      "code": "GT",
      "name": "Guatemala"
    },
    {
      "id": "brazil",
      "index": {
        "cost-of-living-index": 42.64,
        "restaurant-price-index": 34.22,
        "groceries-index": 30.7,
        "rent-index": 10.92
      },
      "type": "country",
      "country": "Brazil",
      "location": {
        "latitude": -14.235004,
        "longitude": -51.92528
      },
      "code": "BR",
      "name": "Brazil"
    },
    {
      "id": "honduras",
      "index": {
        "cost-of-living-index": 42.34,
        "restaurant-price-index": 31.64,
        "groceries-index": 33.02,
        "rent-index": 10.97
      },
      "type": "country",
      "country": "Honduras",
      "location": {
        "latitude": 15.199999,
        "longitude": -86.241905
      },
      "code": "HN",
      "name": "Honduras"
    },
    {
      "id": "ecuador",
      "index": {
        "cost-of-living-index": 41.99,
        "restaurant-price-index": 31.49,
        "groceries-index": 36.48,
        "rent-index": 11.83
      },
      "type": "country",
      "country": "Ecuador",
      "location": {
        "latitude": -1.831239,
        "longitude": -78.183406
      },
      "code": "EC",
      "name": "Ecuador"
    },
    {
      "id": "cuba",
      "index": {
        "cost-of-living-index": 41.73,
        "restaurant-price-index": 29.71,
        "groceries-index": 36.25,
        "rent-index": 6.31
      },
      "type": "country",
      "country": "Cuba",
      "location": {
        "latitude": 21.521757,
        "longitude": -77.781167
      },
      "code": "CU",
      "name": "Cuba"
    },
    {
      "id": "hungary",
      "index": {
        "cost-of-living-index": 41.7,
        "restaurant-price-index": 34.2,
        "groceries-index": 31.88,
        "rent-index": 13.84
      },
      "type": "country",
      "country": "Hungary",
      "location": {
        "latitude": 47.162494,
        "longitude": 19.503304
      },
      "code": "HU",
      "name": "Hungary"
    },
    {
      "id": "iran",
      "index": {
        "cost-of-living-index": 41.39,
        "restaurant-price-index": 25.54,
        "groceries-index": 40.11,
        "rent-index": 14.29
      },
      "type": "country",
      "country": "Iran",
      "location": {
        "latitude": 32.427908,
        "longitude": 53.688046
      },
      "code": "IR",
      "name": "Iran"
    },
    {
      "id": "china",
      "index": {
        "cost-of-living-index": 40.54,
        "restaurant-price-index": 29.68,
        "groceries-index": 41.03,
        "rent-index": 17.19
      },
      "type": "country",
      "country": "China",
      "location": {
        "latitude": 35.86166,
        "longitude": 104.195397
      },
      "code": "CN",
      "name": "China"
    },
    {
      "id": "iraq",
      "index": {
        "cost-of-living-index": 39.84,
        "restaurant-price-index": 33.92,
        "groceries-index": 32.7,
        "rent-index": 11.11
      },
      "type": "country",
      "country": "Iraq",
      "location": {
        "latitude": 33.223191,
        "longitude": 43.679291
      },
      "code": "IQ",
      "name": "Iraq"
    },
    {
      "id": "suriname",
      "index": {
        "cost-of-living-index": 39.58,
        "restaurant-price-index": 33.36,
        "groceries-index": 44.06,
        "rent-index": 8.19
      },
      "type": "country",
      "country": "Suriname",
      "location": {
        "latitude": 3.919305,
        "longitude": -56.027783
      },
      "code": "SR",
      "name": "Suriname"
    },
    {
      "id": "malaysia",
      "index": {
        "cost-of-living-index": 39.46,
        "restaurant-price-index": 22.97,
        "groceries-index": 38.6,
        "rent-index": 10.65
      },
      "type": "country",
      "country": "Malaysia",
      "location": {
        "latitude": 4.210484,
        "longitude": 101.975766
      },
      "code": "MY",
      "name": "Malaysia"
    },
    {
      "id": "poland",
      "index": {
        "cost-of-living-index": 39.38,
        "restaurant-price-index": 32.89,
        "groceries-index": 30.36,
        "rent-index": 15.29
      },
      "type": "country",
      "country": "Poland",
      "location": {
        "latitude": 51.919438,
        "longitude": 19.145136
      },
      "code": "PL",
      "name": "Poland"
    },
    {
      "id": "botswana",
      "index": {
        "cost-of-living-index": 39.37,
        "restaurant-price-index": 42.56,
        "groceries-index": 33.28,
        "rent-index": 11.43
      },
      "type": "country",
      "country": "Botswana",
      "location": {
        "latitude": -22.328474,
        "longitude": 24.684866
      },
      "code": "BW",
      "name": "Botswana"
    },
    {
      "id": "montenegro",
      "index": {
        "cost-of-living-index": 39.37,
        "restaurant-price-index": 34.17,
        "groceries-index": 30,
        "rent-index": 10.3
      },
      "type": "country",
      "country": "Montenegro",
      "location": {
        "latitude": 42.708678,
        "longitude": 19.37439
      },
      "code": "ME",
      "name": "Montenegro"
    },
    {
      "id": "kenya",
      "index": {
        "cost-of-living-index": 39.26,
        "restaurant-price-index": 32.35,
        "groceries-index": 33.86,
        "rent-index": 11.2
      },
      "type": "country",
      "country": "Kenya",
      "location": {
        "latitude": -0.023559,
        "longitude": 37.906193
      },
      "code": "KE",
      "name": "Kenya"
    },
    {
      "id": "peru",
      "index": {
        "cost-of-living-index": 38.82,
        "restaurant-price-index": 26.32,
        "groceries-index": 33.2,
        "rent-index": 12.41
      },
      "type": "country",
      "country": "Peru",
      "location": {
        "latitude": -9.189967,
        "longitude": -75.015152
      },
      "code": "PE",
      "name": "Peru"
    },
    {
      "id": "argentina",
      "index": {
        "cost-of-living-index": 38.72,
        "restaurant-price-index": 36.43,
        "groceries-index": 31.32,
        "rent-index": 10.38
      },
      "type": "country",
      "country": "Argentina",
      "location": {
        "latitude": -38.416097,
        "longitude": -63.616672
      },
      "code": "AR",
      "name": "Argentina"
    },
    {
      "id": "russia",
      "index": {
        "cost-of-living-index": 38.59,
        "restaurant-price-index": 39.32,
        "groceries-index": 30.79,
        "rent-index": 12
      },
      "type": "country",
      "country": "Russia",
      "location": {
        "latitude": 61.52401,
        "longitude": 105.318756
      },
      "code": "RU",
      "name": "Russia"
    },
    {
      "id": "vietnam",
      "index": {
        "cost-of-living-index": 38.17,
        "restaurant-price-index": 19.98,
        "groceries-index": 36.97,
        "rent-index": 13.34
      },
      "type": "country",
      "country": "Vietnam",
      "location": {
        "latitude": 14.058324,
        "longitude": 108.277199
      },
      "code": "VN",
      "name": "Vietnam"
    },
    {
      "id": "bulgaria",
      "index": {
        "cost-of-living-index": 37.37,
        "restaurant-price-index": 29.71,
        "groceries-index": 30.75,
        "rent-index": 9.45
      },
      "type": "country",
      "country": "Bulgaria",
      "location": {
        "latitude": 42.733883,
        "longitude": 25.48583
      },
      "code": "BG",
      "name": "Bulgaria"
    },
    {
      "id": "philippines",
      "index": {
        "cost-of-living-index": 36.97,
        "restaurant-price-index": 20.86,
        "groceries-index": 33.22,
        "rent-index": 8.66
      },
      "type": "country",
      "country": "Philippines",
      "location": {
        "latitude": 12.879721,
        "longitude": 121.774017
      },
      "code": "PH",
      "name": "Philippines"
    },
    {
      "id": "indonesia",
      "index": {
        "cost-of-living-index": 36.86,
        "restaurant-price-index": 18.18,
        "groceries-index": 37.48,
        "rent-index": 9.01
      },
      "type": "country",
      "country": "Indonesia",
      "location": {
        "latitude": -0.789275,
        "longitude": 113.921327
      },
      "code": "ID",
      "name": "Indonesia"
    },
    {
      "id": "albania",
      "index": {
        "cost-of-living-index": 36.63,
        "restaurant-price-index": 28.67,
        "groceries-index": 28.54,
        "rent-index": 8.63
      },
      "type": "country",
      "country": "Albania",
      "location": {
        "latitude": 41.153332,
        "longitude": 20.168331
      },
      "code": "AL",
      "name": "Albania"
    },
    {
      "id": "serbia",
      "index": {
        "cost-of-living-index": 36.3,
        "restaurant-price-index": 29.87,
        "groceries-index": 25.96,
        "rent-index": 8.75
      },
      "type": "country",
      "country": "Serbia",
      "location": {
        "latitude": 44.016521,
        "longitude": 21.005859
      },
      "code": "RS",
      "name": "Serbia"
    },
    {
      "id": "bosnia-and-herzegovina",
      "index": {
        "cost-of-living-index": 36.19,
        "restaurant-price-index": 24.78,
        "groceries-index": 28.66,
        "rent-index": 6.59
      },
      "type": "country",
      "country": "Bosnia and Herzegovina",
      "location": {
        "latitude": 43.915886,
        "longitude": 17.679076
      },
      "code": "BA",
      "name": "Bosnia and Herzegovina"
    },
    {
      "id": "romania",
      "index": {
        "cost-of-living-index": 36.07,
        "restaurant-price-index": 31.68,
        "groceries-index": 29.5,
        "rent-index": 10.19
      },
      "type": "country",
      "country": "Romania",
      "location": {
        "latitude": 45.943161,
        "longitude": 24.96676
      },
      "code": "RO",
      "name": "Romania"
    },
    {
      "id": "turkey",
      "index": {
        "cost-of-living-index": 35.66,
        "restaurant-price-index": 25.15,
        "groceries-index": 30.88,
        "rent-index": 7.27
      },
      "type": "country",
      "country": "Turkey",
      "location": {
        "latitude": 38.963745,
        "longitude": 35.243322
      },
      "code": "TR",
      "name": "Turkey"
    },
    {
      "id": "zambia",
      "index": {
        "cost-of-living-index": 35.49,
        "restaurant-price-index": 25.57,
        "groceries-index": 29.15,
        "rent-index": 10.99
      },
      "type": "country",
      "country": "Zambia",
      "location": {
        "latitude": -13.133897,
        "longitude": 27.849332
      },
      "code": "ZM",
      "name": "Zambia"
    },
    {
      "id": "tanzania",
      "index": {
        "cost-of-living-index": 35.07,
        "restaurant-price-index": 24.4,
        "groceries-index": 29.04,
        "rent-index": 14.74
      },
      "type": "country",
      "country": "Tanzania",
      "location": {
        "latitude": -6.369028,
        "longitude": 34.888822
      },
      "code": "TZ",
      "name": "Tanzania"
    },
    {
      "id": "morocco",
      "index": {
        "cost-of-living-index": 34.59,
        "restaurant-price-index": 23.94,
        "groceries-index": 30.3,
        "rent-index": 9.29
      },
      "type": "country",
      "country": "Morocco",
      "location": {
        "latitude": 31.791702,
        "longitude": -7.09262
      },
      "code": "MA",
      "name": "Morocco"
    },
    {
      "id": "mongolia",
      "index": {
        "cost-of-living-index": 34.43,
        "restaurant-price-index": 23.31,
        "groceries-index": 32.12,
        "rent-index": 9.68
      },
      "type": "country",
      "country": "Mongolia",
      "location": {
        "latitude": 46.862496,
        "longitude": 103.846656
      },
      "code": "MN",
      "name": "Mongolia"
    },
    {
      "id": "mexico",
      "index": {
        "cost-of-living-index": 34.29,
        "restaurant-price-index": 30.97,
        "groceries-index": 31.39,
        "rent-index": 10.85
      },
      "type": "country",
      "country": "Mexico",
      "location": {
        "latitude": 23.634501,
        "longitude": -102.552784
      },
      "code": "MX",
      "name": "Mexico"
    },
    {
      "id": "bolivia",
      "index": {
        "cost-of-living-index": 34.07,
        "restaurant-price-index": 26.64,
        "groceries-index": 26.75,
        "rent-index": 10.62
      },
      "type": "country",
      "country": "Bolivia",
      "location": {
        "latitude": -16.290154,
        "longitude": -63.588653
      },
      "code": "BO",
      "name": "Bolivia"
    },
    {
      "id": "rwanda",
      "index": {
        "cost-of-living-index": 34.01,
        "restaurant-price-index": 28.47,
        "groceries-index": 27.3,
        "rent-index": 9.73
      },
      "type": "country",
      "country": "Rwanda",
      "location": {
        "latitude": -1.940278,
        "longitude": 29.873888
      },
      "code": "RW",
      "name": "Rwanda"
    },
    {
      "id": "paraguay",
      "index": {
        "cost-of-living-index": 33.32,
        "restaurant-price-index": 27.5,
        "groceries-index": 26.88,
        "rent-index": 9.81
      },
      "type": "country",
      "country": "Paraguay",
      "location": {
        "latitude": -23.442503,
        "longitude": -58.443832
      },
      "code": "PY",
      "name": "Paraguay"
    },
    {
      "id": "belarus",
      "index": {
        "cost-of-living-index": 33.02,
        "restaurant-price-index": 34.27,
        "groceries-index": 27.78,
        "rent-index": 10.32
      },
      "type": "country",
      "country": "Belarus",
      "location": {
        "latitude": 53.709807,
        "longitude": 27.953389
      },
      "code": "BY",
      "name": "Belarus"
    },
    {
      "id": "sri-lanka",
      "index": {
        "cost-of-living-index": 32.95,
        "restaurant-price-index": 19.27,
        "groceries-index": 36.36,
        "rent-index": 6.83
      },
      "type": "country",
      "country": "Sri Lanka",
      "location": {
        "latitude": 7.873054,
        "longitude": 80.771797
      },
      "code": "LK",
      "name": "Sri Lanka"
    },
    {
      "id": "armenia",
      "index": {
        "cost-of-living-index": 32.7,
        "restaurant-price-index": 31.04,
        "groceries-index": 25.45,
        "rent-index": 10.56
      },
      "type": "country",
      "country": "Armenia",
      "location": {
        "latitude": 40.069099,
        "longitude": 45.038189
      },
      "code": "AM",
      "name": "Armenia"
    },
    {
      "id": "moldova",
      "index": {
        "cost-of-living-index": 32.63,
        "restaurant-price-index": 27.22,
        "groceries-index": 25.64,
        "rent-index": 7.9
      },
      "type": "country",
      "country": "Moldova",
      "location": {
        "latitude": 47.411631,
        "longitude": 28.369885
      },
      "code": "MD",
      "name": "Moldova"
    },
    {
      "id": "bangladesh",
      "index": {
        "cost-of-living-index": 32.62,
        "restaurant-price-index": 19.8,
        "groceries-index": 29.79,
        "rent-index": 5.18
      },
      "type": "country",
      "country": "Bangladesh",
      "location": {
        "latitude": 23.684994,
        "longitude": 90.356331
      },
      "code": "BD",
      "name": "Bangladesh"
    },
    {
      "id": "macedonia",
      "index": {
        "cost-of-living-index": 32.27,
        "restaurant-price-index": 24.49,
        "groceries-index": 24.98,
        "rent-index": 6.5
      },
      "type": "country",
      "country": "Macedonia",
      "name": "Macedonia"
    },
    {
      "id": "nigeria",
      "index": {
        "cost-of-living-index": 31.75,
        "restaurant-price-index": 20.66,
        "groceries-index": 31.48,
        "rent-index": 21.59
      },
      "type": "country",
      "country": "Nigeria",
      "location": {
        "latitude": 9.081999,
        "longitude": 8.675277
      },
      "code": "NG",
      "name": "Nigeria"
    },
    {
      "id": "uganda",
      "index": {
        "cost-of-living-index": 31.72,
        "restaurant-price-index": 24.2,
        "groceries-index": 26.43,
        "rent-index": 10.02
      },
      "type": "country",
      "country": "Uganda",
      "location": {
        "latitude": 1.373333,
        "longitude": 32.290275
      },
      "code": "UG",
      "name": "Uganda"
    },
    {
      "id": "ukraine",
      "index": {
        "cost-of-living-index": 30.94,
        "restaurant-price-index": 23.98,
        "groceries-index": 24.09,
        "rent-index": 10.33
      },
      "type": "country",
      "country": "Ukraine",
      "location": {
        "latitude": 48.379433,
        "longitude": 31.16558
      },
      "code": "UA",
      "name": "Ukraine"
    },
    {
      "id": "nepal",
      "index": {
        "cost-of-living-index": 30.69,
        "restaurant-price-index": 20.27,
        "groceries-index": 26.47,
        "rent-index": 4.96
      },
      "type": "country",
      "country": "Nepal",
      "location": {
        "latitude": 28.394857,
        "longitude": 84.124008
      },
      "code": "NP",
      "name": "Nepal"
    },
    {
      "id": "algeria",
      "index": {
        "cost-of-living-index": 30.54,
        "restaurant-price-index": 16.46,
        "groceries-index": 31.31,
        "rent-index": 5.51
      },
      "type": "country",
      "country": "Algeria",
      "location": {
        "latitude": 28.033886,
        "longitude": 1.659626
      },
      "code": "DZ",
      "name": "Algeria"
    },
    {
      "id": "colombia",
      "index": {
        "cost-of-living-index": 30.25,
        "restaurant-price-index": 22.33,
        "groceries-index": 24.39,
        "rent-index": 9.43
      },
      "type": "country",
      "country": "Colombia",
      "location": {
        "latitude": 4.570868,
        "longitude": -74.297333
      },
      "code": "CO",
      "name": "Colombia"
    },
    {
      "id": "kazakhstan",
      "index": {
        "cost-of-living-index": 30.06,
        "restaurant-price-index": 29.88,
        "groceries-index": 23.55,
        "rent-index": 9.51
      },
      "type": "country",
      "country": "Kazakhstan",
      "location": {
        "latitude": 48.019573,
        "longitude": 66.923684
      },
      "code": "KZ",
      "name": "Kazakhstan"
    },
    {
      "id": "azerbaijan",
      "index": {
        "cost-of-living-index": 29.81,
        "restaurant-price-index": 31.4,
        "groceries-index": 23.34,
        "rent-index": 9.17
      },
      "type": "country",
      "country": "Azerbaijan",
      "location": {
        "latitude": 40.143105,
        "longitude": 47.576927
      },
      "code": "AZ",
      "name": "Azerbaijan"
    },
    {
      "id": "egypt",
      "index": {
        "cost-of-living-index": 29.09,
        "restaurant-price-index": 24.24,
        "groceries-index": 25.08,
        "rent-index": 5.28
      },
      "type": "country",
      "country": "Egypt",
      "location": {
        "latitude": 26.820553,
        "longitude": 30.802498
      },
      "code": "EG",
      "name": "Egypt"
    },
    {
      "id": "kyrgyzstan",
      "index": {
        "cost-of-living-index": 28.13,
        "restaurant-price-index": 22.3,
        "groceries-index": 25.53,
        "rent-index": 8.96
      },
      "type": "country",
      "country": "Kyrgyzstan",
      "location": {
        "latitude": 41.20438,
        "longitude": 74.766098
      },
      "code": "KG",
      "name": "Kyrgyzstan"
    },
    {
      "id": "georgia",
      "index": {
        "cost-of-living-index": 27.78,
        "restaurant-price-index": 25.97,
        "groceries-index": 22.01,
        "rent-index": 9.3
      },
      "type": "country",
      "country": "Georgia",
      "location": {
        "latitude": 42.315407,
        "longitude": 43.356892
      },
      "code": "GE",
      "name": "Georgia"
    },
    {
      "id": "kosovo-disputed-territory",
      "index": {
        "cost-of-living-index": 27.38,
        "restaurant-price-index": 21.11,
        "groceries-index": 24.61,
        "rent-index": 8.72
      },
      "type": "country",
      "country": "Kosovo (Disputed Territory)",
      "name": "Kosovo (Disputed Territory)"
    },
    {
      "id": "venezuela",
      "index": {
        "cost-of-living-index": 27.22,
        "restaurant-price-index": 22.31,
        "groceries-index": 29.59,
        "rent-index": 6.85
      },
      "type": "country",
      "country": "Venezuela",
      "location": {
        "latitude": 6.42375,
        "longitude": -66.58973
      },
      "code": "VE",
      "name": "Venezuela"
    },
    {
      "id": "uzbekistan",
      "index": {
        "cost-of-living-index": 25.79,
        "restaurant-price-index": 19.34,
        "groceries-index": 22.02,
        "rent-index": 7.82
      },
      "type": "country",
      "country": "Uzbekistan",
      "location": {
        "latitude": 41.377491,
        "longitude": 64.585262
      },
      "code": "UZ",
      "name": "Uzbekistan"
    },
    {
      "id": "tunisia",
      "index": {
        "cost-of-living-index": 25.43,
        "restaurant-price-index": 14.05,
        "groceries-index": 23.45,
        "rent-index": 5.18
      },
      "type": "country",
      "country": "Tunisia",
      "location": {
        "latitude": 33.886917,
        "longitude": 9.537499
      },
      "code": "TN",
      "name": "Tunisia"
    },
    {
      "id": "syria",
      "index": {
        "cost-of-living-index": 25.31,
        "restaurant-price-index": 20.77,
        "groceries-index": 22.82,
        "rent-index": 5.44
      },
      "type": "country",
      "country": "Syria",
      "location": {
        "latitude": 34.802075,
        "longitude": 38.996815
      },
      "code": "SY",
      "name": "Syria"
    },
    {
      "id": "india",
      "index": {
        "cost-of-living-index": 25.14,
        "restaurant-price-index": 17.51,
        "groceries-index": 25.16,
        "rent-index": 5.99
      },
      "type": "country",
      "country": "India",
      "location": {
        "latitude": 20.593684,
        "longitude": 78.96288
      },
      "code": "IN",
      "name": "India"
    },
    {
      "id": "afghanistan",
      "index": {
        "cost-of-living-index": 24.51,
        "restaurant-price-index": 17.12,
        "groceries-index": 18.83,
        "rent-index": 4.29
      },
      "type": "country",
      "country": "Afghanistan",
      "location": {
        "latitude": 33.93911,
        "longitude": 67.709953
      },
      "code": "AF",
      "name": "Afghanistan"
    },
    {
      "id": "pakistan",
      "index": {
        "cost-of-living-index": 18.58,
        "restaurant-price-index": 13.78,
        "groceries-index": 16.5,
        "rent-index": 4.02
      },
      "type": "country",
      "country": "Pakistan",
      "location": {
        "latitude": 30.375321,
        "longitude": 69.345116
      },
      "code": "PK",
      "name": "Pakistan"
    },
    {
      "index": {
        "cost-of-living-index": 128.87,
        "restaurant-price-index": 125.55,
        "groceries-index": 128.75,
        "rent-index": 46.57
      },
      "type": "city",
      "city": "Basel",
      "id": "switzerland-basel",
      "country": "Switzerland",
      "location": {
        "latitude": "47.5804",
        "longitude": "7.5900"
      },
      "name": "Basel, Switzerland"
    },
    {
      "index": {
        "cost-of-living-index": 128.3,
        "restaurant-price-index": 126.1,
        "groceries-index": 129.71,
        "rent-index": 59.66
      },
      "type": "city",
      "city": "Zurich",
      "id": "switzerland-zurich",
      "country": "Switzerland",
      "location": {
        "latitude": "47.3800",
        "longitude": "8.5500"
      },
      "name": "Zurich, Switzerland"
    },
    {
      "index": {
        "cost-of-living-index": 123.98,
        "restaurant-price-index": 124.62,
        "groceries-index": 125.82,
        "rent-index": 49.6
      },
      "type": "city",
      "city": "Lausanne",
      "id": "switzerland-lausanne",
      "country": "Switzerland",
      "location": {
        "latitude": "46.5304",
        "longitude": "6.6500"
      },
      "name": "Lausanne, Switzerland"
    },
    {
      "index": {
        "cost-of-living-index": 122.3,
        "restaurant-price-index": 123.14,
        "groceries-index": 118.83,
        "rent-index": 69.18
      },
      "type": "city",
      "city": "Geneva",
      "id": "switzerland-geneva",
      "country": "Switzerland",
      "location": {
        "latitude": "46.2100",
        "longitude": "6.1400"
      },
      "name": "Geneva, Switzerland"
    },
    {
      "index": {
        "cost-of-living-index": 118.22,
        "restaurant-price-index": 113.54,
        "groceries-index": 113.91,
        "rent-index": 38.35
      },
      "type": "city",
      "city": "Bern",
      "id": "switzerland-bern",
      "country": "Switzerland",
      "location": {
        "latitude": "46.9167",
        "longitude": "7.4670"
      },
      "name": "Bern, Switzerland"
    },
    {
      "index": {
        "cost-of-living-index": 107.21,
        "restaurant-price-index": 133.82,
        "groceries-index": 91.84,
        "rent-index": 37.39
      },
      "type": "city",
      "city": "Stavanger",
      "id": "norway-stavanger",
      "country": "Norway",
      "location": {
        "latitude": "58.9700",
        "longitude": "5.6800"
      },
      "name": "Stavanger, Norway"
    },
    {
      "index": {
        "cost-of-living-index": 105.29,
        "restaurant-price-index": 119.8,
        "groceries-index": 93.35,
        "rent-index": 44.96
      },
      "type": "city",
      "city": "Oslo",
      "id": "norway-oslo",
      "country": "Norway",
      "location": {
        "latitude": "59.9167",
        "longitude": "10.7500"
      },
      "name": "Oslo, Norway"
    },
    {
      "index": {
        "cost-of-living-index": 101.74,
        "restaurant-price-index": 107.05,
        "groceries-index": 93.48,
        "rent-index": 37.97
      },
      "type": "city",
      "city": "Trondheim",
      "id": "norway-trondheim",
      "country": "Norway",
      "location": {
        "latitude": "63.4167",
        "longitude": "10.4167"
      },
      "name": "Trondheim, Norway"
    },
    {
      "index": {
        "cost-of-living-index": 100,
        "restaurant-price-index": 100,
        "groceries-index": 100,
        "rent-index": 100
      },
      "type": "city",
      "city": "New York",
      "id": "united-states-new-york",
      "country": "United States",
      "location": {
        "latitude": "40.6943",
        "longitude": "-73.9249"
      },
      "name": "New York, United States"
    },
    {
      "index": {
        "cost-of-living-index": 99.22,
        "restaurant-price-index": 111.34,
        "groceries-index": 85.22,
        "rent-index": 36.77
      },
      "type": "city",
      "city": "Bergen",
      "id": "norway-bergen",
      "country": "Norway",
      "location": {
        "latitude": "60.3910",
        "longitude": "5.3245"
      },
      "name": "Bergen, Norway"
    },
    {
      "index": {
        "cost-of-living-index": 97.59,
        "restaurant-price-index": 120.39,
        "groceries-index": 81.82,
        "rent-index": 48.64
      },
      "type": "city",
      "city": "Reykjavik",
      "id": "iceland-reykjavik",
      "country": "Iceland",
      "location": {
        "latitude": "64.1500",
        "longitude": "-21.9500"
      },
      "name": "Reykjavik, Iceland"
    },
    {
      "index": {
        "cost-of-living-index": 91.14,
        "restaurant-price-index": 74.65,
        "groceries-index": 93.7,
        "rent-index": 39.62
      },
      "type": "city",
      "city": "Anchorage",
      "id": "united-states-anchorage",
      "country": "United States",
      "location": {
        "latitude": "61.1508",
        "longitude": "-149.1091"
      },
      "name": "Anchorage, United States"
    },
    {
      "index": {
        "cost-of-living-index": 90.6,
        "restaurant-price-index": 60.54,
        "groceries-index": 88.51,
        "rent-index": 41.19
      },
      "type": "city",
      "city": "Tokyo",
      "id": "japan-tokyo",
      "country": "Japan",
      "location": {
        "latitude": "35.6850",
        "longitude": "139.7514"
      },
      "name": "Tokyo, Japan"
    },
    {
      "index": {
        "cost-of-living-index": 89.36,
        "restaurant-price-index": 93.33,
        "groceries-index": 84.35,
        "rent-index": 114.06
      },
      "type": "city",
      "city": "San Francisco",
      "id": "united-states-san-francisco",
      "country": "United States",
      "location": {
        "latitude": "37.7562",
        "longitude": "-122.4430"
      },
      "name": "San Francisco, United States"
    },
    {
      "index": {
        "cost-of-living-index": 88.84,
        "restaurant-price-index": 84.15,
        "groceries-index": 90.13,
        "rent-index": 63.21
      },
      "type": "city",
      "city": "Honolulu",
      "id": "united-states-honolulu",
      "country": "United States",
      "location": {
        "latitude": "21.3294",
        "longitude": "-157.8460"
      },
      "name": "Honolulu, United States"
    },
    {
      "index": {
        "cost-of-living-index": 88.17,
        "restaurant-price-index": 88.21,
        "groceries-index": 89.43,
        "rent-index": 76.29
      },
      "type": "city",
      "city": "Washington",
      "id": "united-states-washington",
      "country": "United States",
      "location": {
        "latitude": "38.5515",
        "longitude": "-91.0151"
      },
      "name": "Washington, United States"
    },
    {
      "index": {
        "cost-of-living-index": 87.77,
        "restaurant-price-index": 95.67,
        "groceries-index": 75.22,
        "rent-index": 56.54
      },
      "type": "city",
      "city": "Luxembourg",
      "id": "luxembourg-luxembourg",
      "country": "Luxembourg",
      "location": {
        "latitude": "49.6117",
        "longitude": "6.1300"
      },
      "name": "Luxembourg, Luxembourg"
    },
    {
      "index": {
        "cost-of-living-index": 87.44,
        "restaurant-price-index": 98.49,
        "groceries-index": 74.88,
        "rent-index": 25.05
      },
      "type": "city",
      "city": "Aalborg",
      "id": "denmark-aalborg",
      "country": "Denmark",
      "location": {
        "latitude": "57.0337",
        "longitude": "9.9166"
      },
      "name": "Aalborg, Denmark"
    },
    {
      "index": {
        "cost-of-living-index": 87.06,
        "restaurant-price-index": 105.73,
        "groceries-index": 65.33,
        "rent-index": 46.58
      },
      "type": "city",
      "city": "Copenhagen",
      "id": "denmark-copenhagen",
      "country": "Denmark",
      "location": {
        "latitude": "55.6761",
        "longitude": "12.5683"
      },
      "name": "Copenhagen, Denmark"
    },
    {
      "index": {
        "cost-of-living-index": 86.95,
        "restaurant-price-index": 93.81,
        "groceries-index": 80.38,
        "rent-index": 80.39
      },
      "type": "city",
      "city": "Brooklyn",
      "id": "united-states-brooklyn",
      "country": "United States",
      "location": {
        "latitude": "41.4349",
        "longitude": "-81.7498"
      },
      "name": "Brooklyn, United States"
    },
    {
      "index": {
        "cost-of-living-index": 86.65,
        "restaurant-price-index": 83.43,
        "groceries-index": 88.46,
        "rent-index": 73.94
      },
      "type": "city",
      "city": "Boston",
      "id": "united-states-boston",
      "country": "United States",
      "location": {
        "latitude": "42.3188",
        "longitude": "-71.0846"
      },
      "name": "Boston, United States"
    },
    {
      "index": {
        "cost-of-living-index": 86.59,
        "restaurant-price-index": 81.59,
        "groceries-index": 84.43,
        "rent-index": 66.1
      },
      "type": "city",
      "city": "Seattle",
      "id": "united-states-seattle",
      "country": "United States",
      "location": {
        "latitude": "47.6211",
        "longitude": "-122.3244"
      },
      "name": "Seattle, United States"
    },
    {
      "index": {
        "cost-of-living-index": 86.43,
        "restaurant-price-index": 92.15,
        "groceries-index": 68.39,
        "rent-index": 32.57
      },
      "type": "city",
      "city": "Arhus",
      "id": "denmark-arhus",
      "country": "Denmark",
      "location": {
        "latitude": 56.1629,
        "longitude": 10.2039
      },
      "name": "Arhus, Denmark"
    },
    {
      "index": {
        "cost-of-living-index": 85.42,
        "restaurant-price-index": 86.37,
        "groceries-index": 77.22,
        "rent-index": 46.84
      },
      "type": "city",
      "city": "Paris",
      "id": "france-paris",
      "country": "France",
      "location": {
        "latitude": "48.8667",
        "longitude": "2.3333"
      },
      "name": "Paris, France"
    },
    {
      "index": {
        "cost-of-living-index": 85.21,
        "restaurant-price-index": 78.07,
        "groceries-index": 85.64,
        "rent-index": 50.3
      },
      "type": "city",
      "city": "Toronto",
      "id": "canada-toronto",
      "country": "Canada",
      "location": {
        "latitude": "43.7000",
        "longitude": "-79.4200"
      },
      "name": "Toronto, Canada"
    },
    {
      "index": {
        "cost-of-living-index": 84.48,
        "restaurant-price-index": 48.23,
        "groceries-index": 101.34,
        "rent-index": 27.68
      },
      "type": "city",
      "city": "Seoul",
      "id": "south-korea-seoul",
      "country": "South Korea",
      "location": {
        "latitude": "37.5665",
        "longitude": "126.9780"
      },
      "name": "Seoul, South Korea"
    },
    {
      "index": {
        "cost-of-living-index": 83.74,
        "restaurant-price-index": 93.66,
        "groceries-index": 70.12,
        "rent-index": 42.92
      },
      "type": "city",
      "city": "Tel Aviv-Yafo",
      "id": "israel-tel-aviv-yafo",
      "country": "Israel",
      "location": {
        "latitude": "32.0800",
        "longitude": "34.7700"
      },
      "name": "Tel Aviv-Yafo, Israel"
    },
    {
      "index": {
        "cost-of-living-index": 83.49,
        "restaurant-price-index": 74.92,
        "groceries-index": 85.6,
        "rent-index": 46.51
      },
      "type": "city",
      "city": "Philadelphia",
      "id": "united-states-philadelphia",
      "country": "United States",
      "location": {
        "latitude": "32.7761",
        "longitude": "-89.1221"
      },
      "name": "Philadelphia, United States"
    },
    {
      "index": {
        "cost-of-living-index": 81.5,
        "restaurant-price-index": 86.26,
        "groceries-index": 58.16,
        "rent-index": 68.87
      },
      "type": "city",
      "city": "London",
      "id": "united-kingdom-london",
      "country": "United Kingdom",
      "location": {
        "latitude": "51.5000",
        "longitude": "-0.1167"
      },
      "name": "London, United Kingdom"
    },
    {
      "index": {
        "cost-of-living-index": 80.31,
        "restaurant-price-index": 87.9,
        "groceries-index": 73.4,
        "rent-index": 82.33
      },
      "type": "city",
      "city": "San Jose",
      "id": "united-states-san-jose",
      "country": "United States",
      "location": {
        "latitude": "37.3018",
        "longitude": "-121.8485"
      },
      "name": "San Jose, United States"
    },
    {
      "index": {
        "cost-of-living-index": 80.23,
        "restaurant-price-index": 55.41,
        "groceries-index": 68.28,
        "rent-index": 61.99
      },
      "type": "city",
      "city": "Singapore",
      "id": "singapore-singapore",
      "country": "Singapore",
      "location": {
        "latitude": "1.2930",
        "longitude": "103.8558"
      },
      "name": "Singapore, Singapore"
    },
    {
      "index": {
        "cost-of-living-index": 79.91,
        "restaurant-price-index": 83.43,
        "groceries-index": 61.73,
        "rent-index": 53.91
      },
      "type": "city",
      "city": "Amsterdam",
      "id": "netherlands-amsterdam",
      "country": "Netherlands",
      "location": {
        "latitude": "52.3500",
        "longitude": "4.9166"
      },
      "name": "Amsterdam, Netherlands"
    },
    {
      "index": {
        "cost-of-living-index": 79.74,
        "restaurant-price-index": 74.77,
        "groceries-index": 70.43,
        "rent-index": 55.42
      },
      "type": "city",
      "city": "Sydney",
      "id": "australia-sydney",
      "country": "Australia",
      "location": {
        "latitude": "-33.9200",
        "longitude": "151.1852"
      },
      "name": "Sydney, Australia"
    },
    {
      "index": {
        "cost-of-living-index": 79.52,
        "restaurant-price-index": 88.99,
        "groceries-index": 63.65,
        "rent-index": 20.54
      },
      "type": "city",
      "city": "Haifa",
      "id": "israel-haifa",
      "country": "Israel",
      "location": {
        "latitude": "32.8204",
        "longitude": "34.9800"
      },
      "name": "Haifa, Israel"
    },
    {
      "index": {
        "cost-of-living-index": 79.21,
        "restaurant-price-index": 55.62,
        "groceries-index": 79.4,
        "rent-index": 79.72
      },
      "type": "city",
      "city": "Hong Kong",
      "id": "hong-kong-hong-kong",
      "country": "Hong Kong",
      "location": {
        "latitude": "22.3050",
        "longitude": "114.1850"
      },
      "name": "Hong Kong, Hong Kong"
    },
    {
      "index": {
        "cost-of-living-index": 79.17,
        "restaurant-price-index": 78.67,
        "groceries-index": 74.38,
        "rent-index": 56.63
      },
      "type": "city",
      "city": "Chicago",
      "id": "united-states-chicago",
      "country": "United States",
      "location": {
        "latitude": "41.8373",
        "longitude": "-87.6861"
      },
      "name": "Chicago, United States"
    },
    {
      "index": {
        "cost-of-living-index": 78.99,
        "restaurant-price-index": 83.9,
        "groceries-index": 74.25,
        "rent-index": 72.16
      },
      "type": "city",
      "city": "Los Angeles",
      "id": "united-states-los-angeles",
      "country": "United States",
      "location": {
        "latitude": "34.1139",
        "longitude": "-118.4068"
      },
      "name": "Los Angeles, United States"
    },
    {
      "index": {
        "cost-of-living-index": 78.88,
        "restaurant-price-index": 84.77,
        "groceries-index": 60.09,
        "rent-index": 62.03
      },
      "type": "city",
      "city": "Dublin",
      "id": "ireland-dublin",
      "country": "Ireland",
      "location": {
        "latitude": "53.3331",
        "longitude": "-6.2489"
      },
      "name": "Dublin, Ireland"
    },
    {
      "index": {
        "cost-of-living-index": 78.4,
        "restaurant-price-index": 75.75,
        "groceries-index": 76.96,
        "rent-index": 42.32
      },
      "type": "city",
      "city": "Charlotte",
      "id": "united-states-charlotte",
      "country": "United States",
      "location": {
        "latitude": "42.5662",
        "longitude": "-84.8304"
      },
      "name": "Charlotte, United States"
    },
    {
      "index": {
        "cost-of-living-index": 78.13,
        "restaurant-price-index": 72.45,
        "groceries-index": 75.06,
        "rent-index": 49.12
      },
      "type": "city",
      "city": "Portland",
      "id": "united-states-portland",
      "country": "United States",
      "location": {
        "latitude": "45.5372",
        "longitude": "-122.6500"
      },
      "name": "Portland, United States"
    },
    {
      "index": {
        "cost-of-living-index": 78.12,
        "restaurant-price-index": 87.68,
        "groceries-index": 62.15,
        "rent-index": 32.37
      },
      "type": "city",
      "city": "Jerusalem",
      "id": "israel-jerusalem",
      "country": "Israel",
      "location": {
        "latitude": "31.7784",
        "longitude": "35.2066"
      },
      "name": "Jerusalem, Israel"
    },
    {
      "index": {
        "cost-of-living-index": 77.79,
        "restaurant-price-index": 71.29,
        "groceries-index": 72.75,
        "rent-index": 45.27
      },
      "type": "city",
      "city": "Sacramento",
      "id": "united-states-sacramento",
      "country": "United States",
      "location": {
        "latitude": "38.5667",
        "longitude": "-121.4683"
      },
      "name": "Sacramento, United States"
    },
    {
      "index": {
        "cost-of-living-index": 77.51,
        "restaurant-price-index": 74.56,
        "groceries-index": 67.36,
        "rent-index": 41.36
      },
      "type": "city",
      "city": "Auckland",
      "id": "new-zealand-auckland",
      "country": "New Zealand",
      "location": {
        "latitude": "-36.8481",
        "longitude": "174.7630"
      },
      "name": "Auckland, New Zealand"
    },
    {
      "index": {
        "cost-of-living-index": 77.29,
        "restaurant-price-index": 83.2,
        "groceries-index": 58.72,
        "rent-index": 33.35
      },
      "type": "city",
      "city": "Ramat Gan",
      "id": "israel-ramat-gan",
      "country": "Israel",
      "location": {
        "latitude": "32.0684",
        "longitude": "34.8248"
      },
      "name": "Ramat Gan, Israel"
    },
    {
      "index": {
        "cost-of-living-index": 77.25,
        "restaurant-price-index": 72.8,
        "groceries-index": 68.04,
        "rent-index": 26.3
      },
      "type": "city",
      "city": "Lyon",
      "id": "france-lyon",
      "country": "France",
      "location": {
        "latitude": "45.7700",
        "longitude": "4.8300"
      },
      "name": "Lyon, France"
    },
    {
      "index": {
        "cost-of-living-index": 77.13,
        "restaurant-price-index": 82.05,
        "groceries-index": 63.53,
        "rent-index": 39.9
      },
      "type": "city",
      "city": "Cork",
      "id": "ireland-cork",
      "country": "Ireland",
      "location": {
        "latitude": "51.8986",
        "longitude": "-8.4958"
      },
      "name": "Cork, Ireland"
    },
    {
      "index": {
        "cost-of-living-index": 77.12,
        "restaurant-price-index": 82.25,
        "groceries-index": 65.61,
        "rent-index": 37.47
      },
      "type": "city",
      "city": "Stockholm",
      "id": "sweden-stockholm",
      "country": "Sweden",
      "location": {
        "latitude": "59.3508",
        "longitude": "18.0973"
      },
      "name": "Stockholm, Sweden"
    },
    {
      "index": {
        "cost-of-living-index": 76.8,
        "restaurant-price-index": 83.9,
        "groceries-index": 59.22,
        "rent-index": 35.45
      },
      "type": "city",
      "city": "The Hague (Den Haag)",
      "id": "netherlands-the-hague-den-haag",
      "country": "Netherlands",
      "location": {
        "latitude": "52.0705",
        "longitude": "4.3007"
      },
      "name": "The Hague (Den Haag), Netherlands"
    },
    {
      "index": {
        "cost-of-living-index": 76.64,
        "restaurant-price-index": 80.31,
        "groceries-index": 71.39,
        "rent-index": 59.13
      },
      "type": "city",
      "city": "Miami",
      "id": "united-states-miami",
      "country": "United States",
      "location": {
        "latitude": "36.8877",
        "longitude": "-94.8718"
      },
      "name": "Miami, United States"
    },
    {
      "index": {
        "cost-of-living-index": 76.07,
        "restaurant-price-index": 79.61,
        "groceries-index": 67.81,
        "rent-index": 47.54
      },
      "type": "city",
      "city": "Minneapolis",
      "id": "united-states-minneapolis",
      "country": "United States",
      "location": {
        "latitude": "44.9635",
        "longitude": "-93.2678"
      },
      "name": "Minneapolis, United States"
    },
    {
      "index": {
        "cost-of-living-index": 76.05,
        "restaurant-price-index": 83.8,
        "groceries-index": 58.98,
        "rent-index": 34.78
      },
      "type": "city",
      "city": "Utrecht",
      "id": "netherlands-utrecht",
      "country": "Netherlands",
      "location": {
        "latitude": "52.1003",
        "longitude": "5.1200"
      },
      "name": "Utrecht, Netherlands"
    },
    {
      "index": {
        "cost-of-living-index": 75.8,
        "restaurant-price-index": 79.49,
        "groceries-index": 66.11,
        "rent-index": 25.87
      },
      "type": "city",
      "city": "Linz",
      "id": "austria-linz",
      "country": "Austria",
      "location": {
        "latitude": "48.3192",
        "longitude": "14.2888"
      },
      "name": "Linz, Austria"
    },
    {
      "index": {
        "cost-of-living-index": 75.79,
        "restaurant-price-index": 82.36,
        "groceries-index": 69.4,
        "rent-index": 32.9
      },
      "type": "city",
      "city": "Albany",
      "id": "united-states-albany",
      "country": "United States",
      "location": {
        "latitude": "44.6274",
        "longitude": "-123.0966"
      },
      "name": "Albany, United States"
    },
    {
      "index": {
        "cost-of-living-index": 75.2,
        "restaurant-price-index": 81.08,
        "groceries-index": 63.21,
        "rent-index": 39.18
      },
      "type": "city",
      "city": "Milan",
      "id": "italy-milan",
      "country": "Italy",
      "location": {
        "latitude": "45.4700",
        "longitude": "9.2050"
      },
      "name": "Milan, Italy"
    },
    {
      "index": {
        "cost-of-living-index": 75,
        "restaurant-price-index": 73.64,
        "groceries-index": 70.74,
        "rent-index": 22.77
      },
      "type": "city",
      "city": "Montpellier",
      "id": "france-montpellier",
      "country": "France",
      "location": {
        "latitude": "43.6104",
        "longitude": "3.8700"
      },
      "name": "Montpellier, France"
    },
    {
      "index": {
        "cost-of-living-index": 74.97,
        "restaurant-price-index": 80.8,
        "groceries-index": 63.2,
        "rent-index": 29.21
      },
      "type": "city",
      "city": "Florence",
      "id": "italy-florence",
      "country": "Italy",
      "location": {
        "latitude": "43.7800",
        "longitude": "11.2500"
      },
      "name": "Florence, Italy"
    },
    {
      "index": {
        "cost-of-living-index": 74.8,
        "restaurant-price-index": 78.7,
        "groceries-index": 69.06,
        "rent-index": 42.69
      },
      "type": "city",
      "city": "Baltimore",
      "id": "united-states-baltimore",
      "country": "United States",
      "location": {
        "latitude": "39.3051",
        "longitude": "-76.6144"
      },
      "name": "Baltimore, United States"
    },
    {
      "index": {
        "cost-of-living-index": 74.49,
        "restaurant-price-index": 77.3,
        "groceries-index": 65.28,
        "rent-index": 30.24
      },
      "type": "city",
      "city": "Perth",
      "id": "australia-perth",
      "country": "Australia",
      "location": {
        "latitude": "-31.9550",
        "longitude": "115.8400"
      },
      "name": "Perth, Australia"
    },
    {
      "index": {
        "cost-of-living-index": 74.48,
        "restaurant-price-index": 82.34,
        "groceries-index": 60.1,
        "rent-index": 24.89
      },
      "type": "city",
      "city": "Gent",
      "id": "belgium-gent",
      "country": "Belgium",
      "location": {
        "latitude": "51.0300",
        "longitude": "3.7000"
      },
      "name": "Gent, Belgium"
    },
    {
      "index": {
        "cost-of-living-index": 74.41,
        "restaurant-price-index": 68.01,
        "groceries-index": 69.69,
        "rent-index": 36.8
      },
      "type": "city",
      "city": "Pittsburgh",
      "id": "united-states-pittsburgh",
      "country": "United States",
      "location": {
        "latitude": "40.4396",
        "longitude": "-79.9763"
      },
      "name": "Pittsburgh, United States"
    },
    {
      "index": {
        "cost-of-living-index": 74.4,
        "restaurant-price-index": 83.74,
        "groceries-index": 63.3,
        "rent-index": 30.68
      },
      "type": "city",
      "city": "Brussels",
      "id": "belgium-brussels",
      "country": "Belgium",
      "location": {
        "latitude": "50.8333",
        "longitude": "4.3333"
      },
      "name": "Brussels, Belgium"
    },
    {
      "index": {
        "cost-of-living-index": 74.39,
        "restaurant-price-index": 83.72,
        "groceries-index": 60.32,
        "rent-index": 35.78
      },
      "type": "city",
      "city": "Helsinki",
      "id": "finland-helsinki",
      "country": "Finland",
      "location": {
        "latitude": "60.1756",
        "longitude": "24.9341"
      },
      "name": "Helsinki, Finland"
    },
    {
      "index": {
        "cost-of-living-index": 74.34,
        "restaurant-price-index": 75.73,
        "groceries-index": 57.91,
        "rent-index": 31.75
      },
      "type": "city",
      "city": "Leiden",
      "id": "netherlands-leiden",
      "country": "Netherlands",
      "location": {
        "latitude": "52.1601",
        "longitude": "4.4970"
      },
      "name": "Leiden, Netherlands"
    },
    {
      "index": {
        "cost-of-living-index": 74.16,
        "restaurant-price-index": 80.58,
        "groceries-index": 58.31,
        "rent-index": 33.44
      },
      "type": "city",
      "city": "Eindhoven",
      "id": "netherlands-eindhoven",
      "country": "Netherlands",
      "location": {
        "latitude": "51.4300",
        "longitude": "5.5000"
      },
      "name": "Eindhoven, Netherlands"
    },
    {
      "index": {
        "cost-of-living-index": 74.05,
        "restaurant-price-index": 66.46,
        "groceries-index": 79.33,
        "rent-index": 37.66
      },
      "type": "city",
      "city": "Raleigh",
      "id": "united-states-raleigh",
      "country": "United States",
      "location": {
        "latitude": "35.8323",
        "longitude": "-78.6439"
      },
      "name": "Raleigh, United States"
    },
    {
      "index": {
        "cost-of-living-index": 73.98,
        "restaurant-price-index": 77.56,
        "groceries-index": 67.46,
        "rent-index": 52.78
      },
      "type": "city",
      "city": "Denver",
      "id": "united-states-denver",
      "country": "United States",
      "location": {
        "latitude": "39.7621",
        "longitude": "-104.8759"
      },
      "name": "Denver, United States"
    },
    {
      "index": {
        "cost-of-living-index": 73.85,
        "restaurant-price-index": 76.24,
        "groceries-index": 68.61,
        "rent-index": 28.1
      },
      "type": "city",
      "city": "Buffalo",
      "id": "united-states-buffalo",
      "country": "United States",
      "location": {
        "latitude": "45.1794",
        "longitude": "-93.8644"
      },
      "name": "Buffalo, United States"
    },
    {
      "index": {
        "cost-of-living-index": 73.72,
        "restaurant-price-index": 70.62,
        "groceries-index": 73.33,
        "rent-index": 51.28
      },
      "type": "city",
      "city": "Vancouver",
      "id": "canada-vancouver",
      "country": "Canada",
      "location": {
        "latitude": "49.2734",
        "longitude": "-123.1216"
      },
      "name": "Vancouver, Canada"
    },
    {
      "index": {
        "cost-of-living-index": 73.71,
        "restaurant-price-index": 72.88,
        "groceries-index": 67.17,
        "rent-index": 22.24
      },
      "type": "city",
      "city": "Toulouse",
      "id": "france-toulouse",
      "country": "France",
      "location": {
        "latitude": "43.6200",
        "longitude": "1.4499"
      },
      "name": "Toulouse, France"
    },
    {
      "index": {
        "cost-of-living-index": 73.62,
        "restaurant-price-index": 70.74,
        "groceries-index": 57.93,
        "rent-index": 29.73
      },
      "type": "city",
      "city": "Delft",
      "id": "netherlands-delft",
      "country": "Netherlands",
      "location": {
        "latitude": "52.0116",
        "longitude": "4.3571"
      },
      "name": "Delft, Netherlands"
    },
    {
      "index": {
        "cost-of-living-index": 73.56,
        "restaurant-price-index": 85.75,
        "groceries-index": 58.18,
        "rent-index": 25.48
      },
      "type": "city",
      "city": "Antwerp",
      "id": "belgium-antwerp",
      "country": "Belgium",
      "location": {
        "latitude": "51.2194",
        "longitude": "4.4025"
      },
      "name": "Antwerp, Belgium"
    },
    {
      "index": {
        "cost-of-living-index": 73.38,
        "restaurant-price-index": 72.23,
        "groceries-index": 66.62,
        "rent-index": 42.84
      },
      "type": "city",
      "city": "Melbourne",
      "id": "australia-melbourne",
      "country": "Australia",
      "location": {
        "latitude": "-37.8200",
        "longitude": "144.9750"
      },
      "name": "Melbourne, Australia"
    },
    {
      "index": {
        "cost-of-living-index": 73.35,
        "restaurant-price-index": 74.96,
        "groceries-index": 63.78,
        "rent-index": 18.88
      },
      "type": "city",
      "city": "Genoa",
      "id": "italy-genoa",
      "country": "Italy",
      "location": {
        "latitude": "44.4100",
        "longitude": "8.9300"
      },
      "name": "Genoa, Italy"
    },
    {
      "index": {
        "cost-of-living-index": 73.15,
        "restaurant-price-index": 73.22,
        "groceries-index": 67.98,
        "rent-index": 40.04
      },
      "type": "city",
      "city": "Canberra",
      "id": "australia-canberra",
      "country": "Australia",
      "location": {
        "latitude": "-35.2830",
        "longitude": "149.1290"
      },
      "name": "Canberra, Australia"
    },
    {
      "index": {
        "cost-of-living-index": 73.11,
        "restaurant-price-index": 73.2,
        "groceries-index": 66.23,
        "rent-index": 27.97
      },
      "type": "city",
      "city": "Christchurch",
      "id": "new-zealand-christchurch",
      "country": "New Zealand",
      "location": {
        "latitude": "-43.5350",
        "longitude": "172.6300"
      },
      "name": "Christchurch, New Zealand"
    },
    {
      "index": {
        "cost-of-living-index": 72.86,
        "restaurant-price-index": 70.92,
        "groceries-index": 73.07,
        "rent-index": 40.23
      },
      "type": "city",
      "city": "Asheville",
      "id": "united-states-asheville",
      "country": "United States",
      "location": {
        "latitude": "35.5706",
        "longitude": "-82.5537"
      },
      "name": "Asheville, United States"
    },
    {
      "index": {
        "cost-of-living-index": 72.65,
        "restaurant-price-index": 77.31,
        "groceries-index": 54.52,
        "rent-index": 43.71
      },
      "type": "city",
      "city": "Munich",
      "id": "germany-munich",
      "country": "Germany",
      "location": {
        "latitude": "48.1299",
        "longitude": "11.5750"
      },
      "name": "Munich, Germany"
    },
    {
      "index": {
        "cost-of-living-index": 72.64,
        "restaurant-price-index": 80.9,
        "groceries-index": 64.76,
        "rent-index": 34.09
      },
      "type": "city",
      "city": "Newcastle",
      "id": "australia-newcastle",
      "country": "Australia",
      "location": {
        "latitude": "-32.8453",
        "longitude": "151.8150"
      },
      "name": "Newcastle, Australia"
    },
    {
      "index": {
        "cost-of-living-index": 72.59,
        "restaurant-price-index": 66.7,
        "groceries-index": 65.41,
        "rent-index": 39.66
      },
      "type": "city",
      "city": "Wellington",
      "id": "new-zealand-wellington",
      "country": "New Zealand",
      "location": {
        "latitude": "-41.3000",
        "longitude": "174.7833"
      },
      "name": "Wellington, New Zealand"
    },
    {
      "index": {
        "cost-of-living-index": 72.55,
        "restaurant-price-index": 72.38,
        "groceries-index": 59.27,
        "rent-index": 35.8
      },
      "type": "city",
      "city": "Galway",
      "id": "ireland-galway",
      "country": "Ireland",
      "location": {
        "latitude": "53.2724",
        "longitude": "-9.0488"
      },
      "name": "Galway, Ireland"
    },
    {
      "index": {
        "cost-of-living-index": 72.49,
        "restaurant-price-index": 71.57,
        "groceries-index": 65.86,
        "rent-index": 35.97
      },
      "type": "city",
      "city": "Brisbane",
      "id": "australia-brisbane",
      "country": "Australia",
      "location": {
        "latitude": "-27.4550",
        "longitude": "153.0351"
      },
      "name": "Brisbane, Australia"
    },
    {
      "index": {
        "cost-of-living-index": 72.48,
        "restaurant-price-index": 89.1,
        "groceries-index": 54.43,
        "rent-index": 25.78
      },
      "type": "city",
      "city": "Aberdeen",
      "id": "united-kingdom-aberdeen",
      "country": "United Kingdom",
      "location": {
        "latitude": "57.1704",
        "longitude": "-2.0800"
      },
      "name": "Aberdeen, United Kingdom"
    },
    {
      "index": {
        "cost-of-living-index": 72.41,
        "restaurant-price-index": 76.11,
        "groceries-index": 64.21,
        "rent-index": 65.22
      },
      "type": "city",
      "city": "San Diego",
      "id": "united-states-san-diego",
      "country": "United States",
      "location": {
        "latitude": "32.8312",
        "longitude": "-117.1226"
      },
      "name": "San Diego, United States"
    },
    {
      "index": {
        "cost-of-living-index": 72.29,
        "restaurant-price-index": 73.74,
        "groceries-index": 58.54,
        "rent-index": 26.7
      },
      "type": "city",
      "city": "Groningen",
      "id": "netherlands-groningen",
      "country": "Netherlands",
      "location": {
        "latitude": "53.2204",
        "longitude": "6.5800"
      },
      "name": "Groningen, Netherlands"
    },
    {
      "index": {
        "cost-of-living-index": 72.05,
        "restaurant-price-index": 63.54,
        "groceries-index": 73.94,
        "rent-index": 37.96
      },
      "type": "city",
      "city": "Victoria",
      "id": "canada-victoria",
      "country": "Canada",
      "location": {
        "latitude": "48.4333",
        "longitude": "-123.3500"
      },
      "name": "Victoria, Canada"
    },
    {
      "index": {
        "cost-of-living-index": 71.53,
        "restaurant-price-index": 60.74,
        "groceries-index": 74.81,
        "rent-index": 28.03
      },
      "type": "city",
      "city": "Halifax",
      "id": "canada-halifax",
      "country": "Canada",
      "location": {
        "latitude": "44.6500",
        "longitude": "-63.6000"
      },
      "name": "Halifax, Canada"
    },
    {
      "index": {
        "cost-of-living-index": 71.3,
        "restaurant-price-index": 66.89,
        "groceries-index": 53.64,
        "rent-index": 33.26
      },
      "type": "city",
      "city": "Hamburg",
      "id": "germany-hamburg",
      "country": "Germany",
      "location": {
        "latitude": "53.5500",
        "longitude": "10.0000"
      },
      "name": "Hamburg, Germany"
    },
    {
      "index": {
        "cost-of-living-index": 71.3,
        "restaurant-price-index": 71.1,
        "groceries-index": 65.4,
        "rent-index": 30.4
      },
      "type": "city",
      "city": "Calgary",
      "id": "canada-calgary",
      "country": "Canada",
      "location": {
        "latitude": "51.0830",
        "longitude": "-114.0800"
      },
      "name": "Calgary, Canada"
    },
    {
      "index": {
        "cost-of-living-index": 71.17,
        "restaurant-price-index": 76.9,
        "groceries-index": 58.84,
        "rent-index": 36.93
      },
      "type": "city",
      "city": "Rome",
      "id": "italy-rome",
      "country": "Italy",
      "location": {
        "latitude": "41.8960",
        "longitude": "12.4833"
      },
      "name": "Rome, Italy"
    },
    {
      "index": {
        "cost-of-living-index": 70.99,
        "restaurant-price-index": 67.19,
        "groceries-index": 52.11,
        "rent-index": 36.14
      },
      "type": "city",
      "city": "Frankfurt",
      "id": "germany-frankfurt",
      "country": "Germany",
      "location": {
        "latitude": "50.1000",
        "longitude": "8.6750"
      },
      "name": "Frankfurt, Germany"
    },
    {
      "index": {
        "cost-of-living-index": 70.72,
        "restaurant-price-index": 65.07,
        "groceries-index": 68.5,
        "rent-index": 33.57
      },
      "type": "city",
      "city": "Columbus",
      "id": "united-states-columbus",
      "country": "United States",
      "location": {
        "latitude": "33.5088",
        "longitude": "-88.4097"
      },
      "name": "Columbus, United States"
    },
    {
      "index": {
        "cost-of-living-index": 70.65,
        "restaurant-price-index": 72.1,
        "groceries-index": 63.18,
        "rent-index": 46.14
      },
      "type": "city",
      "city": "Atlanta",
      "id": "united-states-atlanta",
      "country": "United States",
      "location": {
        "latitude": "33.7626",
        "longitude": "-84.4228"
      },
      "name": "Atlanta, United States"
    },
    {
      "index": {
        "cost-of-living-index": 70.58,
        "restaurant-price-index": 71.28,
        "groceries-index": 53.89,
        "rent-index": 38.09
      },
      "type": "city",
      "city": "Rotterdam",
      "id": "netherlands-rotterdam",
      "country": "Netherlands",
      "location": {
        "latitude": "51.9200",
        "longitude": "4.4800"
      },
      "name": "Rotterdam, Netherlands"
    },
    {
      "index": {
        "cost-of-living-index": 70.51,
        "restaurant-price-index": 70.68,
        "groceries-index": 67.38,
        "rent-index": 35.9
      },
      "type": "city",
      "city": "Gold Coast",
      "id": "australia-gold-coast",
      "country": "Australia",
      "location": {
        "latitude": "-28.0815",
        "longitude": "153.4482"
      },
      "name": "Gold Coast, Australia"
    },
    {
      "index": {
        "cost-of-living-index": 70.42,
        "restaurant-price-index": 64.28,
        "groceries-index": 60.62,
        "rent-index": 23.71
      },
      "type": "city",
      "city": "Lille",
      "id": "france-lille",
      "country": "France",
      "location": {
        "latitude": "50.6500",
        "longitude": "3.0800"
      },
      "name": "Lille, France"
    },
    {
      "index": {
        "cost-of-living-index": 70.38,
        "restaurant-price-index": 83.31,
        "groceries-index": 50.61,
        "rent-index": 41.43
      },
      "type": "city",
      "city": "Brighton",
      "id": "united-kingdom-brighton",
      "country": "United Kingdom",
      "location": {
        "latitude": "50.8303",
        "longitude": "-0.1700"
      },
      "name": "Brighton, United Kingdom"
    },
    {
      "index": {
        "cost-of-living-index": 70.36,
        "restaurant-price-index": 72.06,
        "groceries-index": 64.74,
        "rent-index": 29.81
      },
      "type": "city",
      "city": "Edmonton",
      "id": "canada-edmonton",
      "country": "Canada",
      "location": {
        "latitude": "53.5500",
        "longitude": "-113.5000"
      },
      "name": "Edmonton, Canada"
    },
    {
      "index": {
        "cost-of-living-index": 70.15,
        "restaurant-price-index": 83.68,
        "groceries-index": 53.49,
        "rent-index": 34.78
      },
      "type": "city",
      "city": "Bristol",
      "id": "united-kingdom-bristol",
      "country": "United Kingdom",
      "location": {
        "latitude": "51.4500",
        "longitude": "-2.5833"
      },
      "name": "Bristol, United Kingdom"
    },
    {
      "index": {
        "cost-of-living-index": 70.1,
        "restaurant-price-index": 67.3,
        "groceries-index": 66.38,
        "rent-index": 28.28
      },
      "type": "city",
      "city": "Hobart",
      "id": "australia-hobart",
      "country": "Australia",
      "location": {
        "latitude": "-42.8500",
        "longitude": "147.2950"
      },
      "name": "Hobart, Australia"
    },
    {
      "index": {
        "cost-of-living-index": 69.88,
        "restaurant-price-index": 66.47,
        "groceries-index": 69.54,
        "rent-index": 38.39
      },
      "type": "city",
      "city": "Reno",
      "id": "united-states-reno",
      "country": "United States",
      "location": {
        "latitude": "39.5497",
        "longitude": "-119.8483"
      },
      "name": "Reno, United States"
    },
    {
      "index": {
        "cost-of-living-index": 69.8,
        "restaurant-price-index": 73.46,
        "groceries-index": 62.94,
        "rent-index": 30.87
      },
      "type": "city",
      "city": "Kansas City",
      "id": "united-states-kansas-city",
      "country": "United States",
      "location": {
        "latitude": "39.1234",
        "longitude": "-94.7443"
      },
      "name": "Kansas City, United States"
    },
    {
      "index": {
        "cost-of-living-index": 69.8,
        "restaurant-price-index": 73.2,
        "groceries-index": 64.94,
        "rent-index": 41.56
      },
      "type": "city",
      "city": "Orlando",
      "id": "united-states-orlando",
      "country": "United States",
      "location": {
        "latitude": "28.4788",
        "longitude": "-81.3420"
      },
      "name": "Orlando, United States"
    },
    {
      "index": {
        "cost-of-living-index": 69.61,
        "restaurant-price-index": 71.85,
        "groceries-index": 52.47,
        "rent-index": 25.92
      },
      "type": "city",
      "city": "Heidelberg",
      "id": "germany-heidelberg",
      "country": "Germany",
      "location": {
        "latitude": "49.4200",
        "longitude": "8.7000"
      },
      "name": "Heidelberg, Germany"
    },
    {
      "index": {
        "cost-of-living-index": 69.57,
        "restaurant-price-index": 69.98,
        "groceries-index": 62.54,
        "rent-index": 31.33
      },
      "type": "city",
      "city": "Ottawa",
      "id": "canada-ottawa",
      "country": "Canada",
      "location": {
        "latitude": "45.4167",
        "longitude": "-75.7000"
      },
      "name": "Ottawa, Canada"
    },
    {
      "index": {
        "cost-of-living-index": 69.38,
        "restaurant-price-index": 75.19,
        "groceries-index": 58.44,
        "rent-index": 24.56
      },
      "type": "city",
      "city": "Bologna",
      "id": "italy-bologna",
      "country": "Italy",
      "location": {
        "latitude": "44.5004",
        "longitude": "11.3400"
      },
      "name": "Bologna, Italy"
    },
    {
      "index": {
        "cost-of-living-index": 69.37,
        "restaurant-price-index": 73,
        "groceries-index": 62.49,
        "rent-index": 33.88
      },
      "type": "city",
      "city": "Las Vegas",
      "id": "united-states-las-vegas",
      "country": "United States",
      "location": {
        "latitude": "36.2291",
        "longitude": "-115.2607"
      },
      "name": "Las Vegas, United States"
    },
    {
      "index": {
        "cost-of-living-index": 69.34,
        "restaurant-price-index": 73.35,
        "groceries-index": 61.59,
        "rent-index": 31.78
      },
      "type": "city",
      "city": "Gothenburg",
      "id": "sweden-gothenburg",
      "country": "Sweden",
      "location": {
        "latitude": "57.7089",
        "longitude": "11.9746"
      },
      "name": "Gothenburg, Sweden"
    },
    {
      "index": {
        "cost-of-living-index": 69.17,
        "restaurant-price-index": 75.38,
        "groceries-index": 64.97,
        "rent-index": 49.38
      },
      "type": "city",
      "city": "Austin",
      "id": "united-states-austin",
      "country": "United States",
      "location": {
        "latitude": "43.6722",
        "longitude": "-92.9761"
      },
      "name": "Austin, United States"
    },
    {
      "index": {
        "cost-of-living-index": 69.04,
        "restaurant-price-index": 67.5,
        "groceries-index": 66.41,
        "rent-index": 40.36
      },
      "type": "city",
      "city": "Tampa",
      "id": "united-states-tampa",
      "country": "United States",
      "location": {
        "latitude": "27.9937",
        "longitude": "-82.4454"
      },
      "name": "Tampa, United States"
    },
    {
      "index": {
        "cost-of-living-index": 69.03,
        "restaurant-price-index": 78.95,
        "groceries-index": 51.58,
        "rent-index": 40.65
      },
      "type": "city",
      "city": "Cambridge",
      "id": "united-kingdom-cambridge",
      "country": "United Kingdom",
      "location": {
        "latitude": "52.2004",
        "longitude": "0.1166"
      },
      "name": "Cambridge, United Kingdom"
    },
    {
      "index": {
        "cost-of-living-index": 68.99,
        "restaurant-price-index": 67.31,
        "groceries-index": 52.16,
        "rent-index": 28.54
      },
      "type": "city",
      "city": "Dusseldorf",
      "id": "germany-dusseldorf",
      "country": "Germany",
      "location": {
        "latitude": "51.2204",
        "longitude": "6.7800"
      },
      "name": "Dusseldorf, Germany"
    },